var data={
"type": "FeatureCollection",
"features": [
{ "type": "Feature", "id": 7, "properties": { "gid": 7, "file": "EB-10-SF-0031, EB-10-SF-0135", "date": "3/11/2011", "actiontype": "NAL", "addressee": "Gabriel A. Garcia, San Jose, CA", "url": "http://transition.fcc.gov/eb/Orders/2011/DA-11-472A1.html", "fortamt": "$25,000.00", "lat": 37.391100, "lon": -121.889000, "state": "CA" }, "geometry": { "type": "Point", "coordinates": [ -121.889000, 37.391100 ] } }
,
{ "type": "Feature", "id": 22, "properties": { "gid": 22, "file": "EB-10-SF-0095, EB-10-SF-0105", "date": "5/4/2011", "actiontype": "NAL", "addressee": "Gabriel A. Garcia, San Jose, CA", "url": "http://transition.fcc.gov/eb/Orders/2011/DA-11-836A1.html", "fortamt": "$25,000.00", "lat": 37.391100, "lon": -121.889000, "state": "CA" }, "geometry": { "type": "Point", "coordinates": [ -121.889000, 37.391100 ] } }
,
{ "type": "Feature", "id": 54, "properties": { "gid": 54, "file": "EB-11-SF-0121", "date": "7/28/2011", "actiontype": "NOUO", "addressee": "Julie M. Bradley, San Francisco, CA", "url": "http://www.fcc.gov/eb/FieldNotices/2003/DOC-308810A1.html", "fortamt": "", "lat": 37.773400, "lon": -122.413100, "state": "CA" }, "geometry": { "type": "Point", "coordinates": [ -122.413100, 37.773400 ] } }
,
{ "type": "Feature", "id": 55, "properties": { "gid": 55, "file": "EB-11-SF-0122", "date": "7/28/2011", "actiontype": "NOUO", "addressee": "Alec P. Bennett, San Francisco, CA", "url": "http://www.fcc.gov/eb/FieldNotices/2003/DOC-308809A1.html", "fortamt": "", "lat": 37.773400, "lon": -122.413100, "state": "CA" }, "geometry": { "type": "Point", "coordinates": [ -122.413100, 37.773400 ] } }
,
{ "type": "Feature", "id": 56, "properties": { "gid": 56, "file": "EB-11-SF-0123", "date": "7/28/2011", "actiontype": "NOUO", "addressee": "David A. Gardner, San Francisco, CA", "url": "http://www.fcc.gov/eb/FieldNotices/2003/DOC-308808A1.html", "fortamt": "", "lat": 37.773400, "lon": -122.413100, "state": "CA" }, "geometry": { "type": "Point", "coordinates": [ -122.413100, 37.773400 ] } }
,
{ "type": "Feature", "id": 57, "properties": { "gid": 57, "file": "EB-11-SF-0047", "date": "7/28/2011", "actiontype": "NOUO", "addressee": "Thomas Eric Niederreuther, Corte Madera, CA", "url": "http://www.fcc.gov/eb/FieldNotices/2003/DOC-308807A1.html", "fortamt": "", "lat": 37.924000, "lon": -122.516500, "state": "CA" }, "geometry": { "type": "Point", "coordinates": [ -122.516500, 37.924000 ] } }
,
{ "type": "Feature", "id": 62, "properties": { "gid": 62, "file": "EB-11-LA-0092", "date": "8/19/2011", "actiontype": "NOUO", "addressee": "Willie Walton, Santa Clarita, California", "url": "http://www.fcc.gov/eb/FieldNotices/2003/DOC-309212A1.html", "fortamt": "", "lat": 34.439300, "lon": -118.519100, "state": "CA" }, "geometry": { "type": "Point", "coordinates": [ -118.519100, 34.439300 ] } }
,
{ "type": "Feature", "id": 68, "properties": { "gid": 68, "file": "EB-11-LA-0108", "date": "9/15/2011", "actiontype": "NOUO", "addressee": "Arturo Valle Benitez, Jurupa Valley, CA", "url": "http://www.fcc.gov/eb/FieldNotices/2003/DOC-309805A1.html", "fortamt": "", "lat": 33.996600, "lon": -117.445900, "state": "CA" }, "geometry": { "type": "Point", "coordinates": [ -117.445900, 33.996600 ] } }
,
{ "type": "Feature", "id": 69, "properties": { "gid": 69, "file": "EB-11-SF-0236", "date": "9/16/2011", "actiontype": "NOUO", "addressee": "Tom K. Jones, San Francisco, CA", "url": "http://www.fcc.gov/eb/FieldNotices/2003/DOC-309807A1.html", "fortamt": "", "lat": 37.654400, "lon": -122.427300, "state": "CA" }, "geometry": { "type": "Point", "coordinates": [ -122.427300, 37.654400 ] } }
,
{ "type": "Feature", "id": 70, "properties": { "gid": 70, "file": "EB-11-SF-0114", "date": "9/16/2011", "actiontype": "NOUO", "addressee": "Marta L. Rodriguez, San Francisco, CA", "url": "http://www.fcc.gov/eb/FieldNotices/2003/DOC-309808A1.html", "fortamt": "", "lat": 37.745500, "lon": -122.439700, "state": "CA" }, "geometry": { "type": "Point", "coordinates": [ -122.439700, 37.745500 ] } }
,
{ "type": "Feature", "id": 73, "properties": { "gid": 73, "file": "EB-11-SF-0020", "date": "9/21/2011", "actiontype": "NOUO", "addressee": "Jessie L. Flores, Jr., Salinas, CA", "url": "http://www.fcc.gov/eb/FieldNotices/2003/DOC-309812A1.html", "fortamt": "", "lat": 36.775900, "lon": -121.657300, "state": "CA" }, "geometry": { "type": "Point", "coordinates": [ -121.657300, 36.775900 ] } }
,
{ "type": "Feature", "id": 74, "properties": { "gid": 74, "file": "EB-11-SF-0172", "date": "9/21/2011", "actiontype": "NOUO", "addressee": "Paul P. Chacon, Jr., Salinas, CA", "url": "http://www.fcc.gov/eb/FieldNotices/2003/DOC-309813A1.html", "fortamt": "", "lat": 36.710900, "lon": -121.643700, "state": "CA" }, "geometry": { "type": "Point", "coordinates": [ -121.643700, 36.710900 ] } }
,
{ "type": "Feature", "id": 75, "properties": { "gid": 75, "file": "EB-11-SF-0183", "date": "9/21/2011", "actiontype": "NOUO", "addressee": "Vincent A. Peralez, Sr., Soledad, CA 93960", "url": "http://www.fcc.gov/eb/FieldNotices/2003/DOC-309814A1.html", "fortamt": "", "lat": 36.424900, "lon": -121.327600, "state": "CA" }, "geometry": { "type": "Point", "coordinates": [ -121.327600, 36.424900 ] } }
,
{ "type": "Feature", "id": 77, "properties": { "gid": 77, "file": "EB-11-SF-0106", "date": "9/21/2011", "actiontype": "NOUO", "addressee": "Berkeley Liberation Radio, Berkeley, CA", "url": "http://www.fcc.gov/eb/FieldNotices/2003/DOC-309818A1.html", "fortamt": "", "lat": 37.866300, "lon": -122.261500, "state": "CA" }, "geometry": { "type": "Point", "coordinates": [ -122.261500, 37.866300 ] } }
,
{ "type": "Feature", "id": 2, "properties": { "gid": 2, "file": "EB-10-LA-0263", "date": "2/15/2011", "actiontype": "NOUO", "addressee": "Wilshire Westlake Building, Inc., Los Angeles, California", "url": "http://www.fcc.gov/eb/FieldNotices/2003/DOC-304761A1.html", "fortamt": "", "lat": 33.973400, "lon": -118.249000, "state": "CA" }, "geometry": { "type": "Point", "coordinates": [ -118.249000, 33.973400 ] } }
,
{ "type": "Feature", "id": 78, "properties": { "gid": 78, "file": "EB-11-SF-0147", "date": "9/21/2011", "actiontype": "NOUO", "addressee": "Free Radio Santa Cruz, Santa Cruz, CA", "url": "http://www.fcc.gov/eb/FieldNotices/2003/DOC-309816A1.html", "fortamt": "", "lat": 36.982500, "lon": -122.041200, "state": "CA" }, "geometry": { "type": "Point", "coordinates": [ -122.041200, 36.982500 ] } }
,
{ "type": "Feature", "id": 79, "properties": { "gid": 79, "file": "EB-11-SF-0175", "date": "9/21/2011", "actiontype": "NOUO", "addressee": "Neal Langholz, Santa Cruz, CA", "url": "http://www.fcc.gov/eb/FieldNotices/2003/DOC-309815A1.html", "fortamt": "", "lat": 36.982500, "lon": -122.041200, "state": "CA" }, "geometry": { "type": "Point", "coordinates": [ -122.041200, 36.982500 ] } }
,
{ "type": "Feature", "id": 80, "properties": { "gid": 80, "file": "EB-11-SF-0238", "date": "9/21/2011", "actiontype": "NOUO", "addressee": "Free Radio Santa Cruz, Santa Cruz, CA", "url": "http://www.fcc.gov/eb/FieldNotices/2003/DOC-310126A1.html", "fortamt": "", "lat": 37.063100, "lon": -122.163100, "state": "CA" }, "geometry": { "type": "Point", "coordinates": [ -122.163100, 37.063100 ] } }
,
{ "type": "Feature", "id": 91, "properties": { "gid": 91, "file": "EB-09-SF-0031", "date": "10/21/2011", "actiontype": "FORFEITURE ORDER", "addressee": "Daniel K. Roberts, San Francisco, CA", "url": "http://transition.fcc.gov/eb/Orders/2011/DA-11-1756A1.html", "fortamt": "$10,000.00", "lat": 37.773300, "lon": -122.411100, "state": "CA" }, "geometry": { "type": "Point", "coordinates": [ -122.411100, 37.773300 ] } }
,
{ "type": "Feature", "id": 109, "properties": { "gid": 109, "file": "EB-10-SF-0293", "date": "12/14/2011", "actiontype": "NOUO", "addressee": "24 Hour Fitness Sunnyvale - East Arques, Sunnyvale, California", "url": "http://www.fcc.gov/eb/FieldNotices/2003/DOC-311719A1.html", "fortamt": "", "lat": 37.371300, "lon": -122.027900, "state": "CA" }, "geometry": { "type": "Point", "coordinates": [ -122.027900, 37.371300 ] } }
,
{ "type": "Feature", "id": 111, "properties": { "gid": 111, "file": "EB-11-LA-0274", "date": "12/20/2011", "actiontype": "NOUO", "addressee": "Apple Auto Dismantling, Wilmington, CA", "url": "http://www.fcc.gov/eb/FieldNotices/2003/DOC-311717A1.html", "fortamt": "", "lat": 33.783700, "lon": -118.262500, "state": "CA" }, "geometry": { "type": "Point", "coordinates": [ -118.262500, 33.783700 ] } }
,
{ "type": "Feature", "id": 76, "properties": { "gid": 76, "file": "EB-11-SF-0246", "date": "9/21/2011", "actiontype": "NOUO", "addressee": "Christine Bolghand, San Mateo, CA", "url": "http://www.fcc.gov/eb/FieldNotices/2003/DOC-309817A1.html", "fortamt": "", "lat": 37.553400, "lon": -122.324400, "state": "CA" }, "geometry": { "type": "Point", "coordinates": [ -122.324400, 37.553400 ] } }
,
{ "type": "Feature", "id": 3, "properties": { "gid": 3, "file": "EB-11-DV-0011", "date": "2/28/2011", "actiontype": "NOUO", "addressee": "Ward Jenkins, Aurora, Colorado", "url": "http://www.fcc.gov/eb/FieldNotices/2003/DOC-305122A1.html", "fortamt": "", "lat": 39.737600, "lon": -104.811500, "state": "CO" }, "geometry": { "type": "Point", "coordinates": [ -104.811500, 39.737600 ] } }
,
{ "type": "Feature", "id": 53, "properties": { "gid": 53, "file": "EB-11-DV-0193", "date": "7/28/2011", "actiontype": "NOUO", "addressee": "Nathan Hall, Aurora, CO", "url": "http://www.fcc.gov/eb/FieldNotices/2003/DOC-308806A1.html", "fortamt": "", "lat": 39.695500, "lon": -104.789300, "state": "CO" }, "geometry": { "type": "Point", "coordinates": [ -104.789300, 39.695500 ] } }
,
{ "type": "Feature", "id": 6, "properties": { "gid": 6, "file": "EB-10-MA-0048", "date": "3/4/2011", "actiontype": "NAL", "addressee": "Whisler Fleurinor, Fort Lauderdale, FL", "url": "http://transition.fcc.gov/eb/Orders/2011/DA-11-431A1.html", "fortamt": "$20,000.00", "lat": 26.137100, "lon": -80.123200, "state": "FL" }, "geometry": { "type": "Point", "coordinates": [ -80.123200, 26.137100 ] } }
,
{ "type": "Feature", "id": 11, "properties": { "gid": 11, "file": "EB-11-MA-0009", "date": "3/17/2011", "actiontype": "NOUO", "addressee": "Neal Davis, Fort Lauderdale, Florida", "url": "http://www.fcc.gov/eb/FieldNotices/2003/DOC-305290A1.html", "fortamt": "", "lat": 26.144200, "lon": -80.170800, "state": "FL" }, "geometry": { "type": "Point", "coordinates": [ -80.170800, 26.144200 ] } }
,
{ "type": "Feature", "id": 13, "properties": { "gid": 13, "file": "EB-11-MA-0003", "date": "3/23/2011", "actiontype": "NOUO", "addressee": "M & M Investment, Inc., Miami Gardens, Florida", "url": "http://www.fcc.gov/eb/FieldNotices/2003/DOC-305414A1.html", "fortamt": "", "lat": 25.947800, "lon": -80.248000, "state": "FL" }, "geometry": { "type": "Point", "coordinates": [ -80.248000, 25.947800 ] } }
,
{ "type": "Feature", "id": 14, "properties": { "gid": 14, "file": "EB-10-MA-0116", "date": "3/29/2011", "actiontype": "NAL", "addressee": "Marckenson Bazile, Miami, FL", "url": "http://transition.fcc.gov/eb/Orders/2011/DA-11-567A1.html", "fortamt": "$20,000.00", "lat": 25.928100, "lon": -80.176300, "state": "FL" }, "geometry": { "type": "Point", "coordinates": [ -80.176300, 25.928100 ] } }
,
{ "type": "Feature", "id": 21, "properties": { "gid": 21, "file": "EB-10-MA-0145", "date": "4/21/2011", "actiontype": "NOUO", "addressee": "Willis Cernogg, Miami, Florida", "url": "http://www.fcc.gov/eb/FieldNotices/2003/DOC-306455A1.html", "fortamt": "", "lat": 25.813500, "lon": -80.205500, "state": "FL" }, "geometry": { "type": "Point", "coordinates": [ -80.205500, 25.813500 ] } }
,
{ "type": "Feature", "id": 23, "properties": { "gid": 23, "file": "EB-10-MA-0140", "date": "5/5/2011", "actiontype": "NAL", "addressee": "Antonio Robinson, Miami, FL", "url": "http://transition.fcc.gov/eb/Orders/2011/DA-11-833A1.html", "fortamt": "$10,000.00", "lat": 25.942600, "lon": -80.212900, "state": "FL" }, "geometry": { "type": "Point", "coordinates": [ -80.212900, 25.942600 ] } }
,
{ "type": "Feature", "id": 24, "properties": { "gid": 24, "file": "EB-10-MA-0170", "date": "5/5/2011", "actiontype": "NAL", "addressee": "Mikhail Rhodd, Lauderdale Lakes, FL", "url": "http://transition.fcc.gov/eb/Orders/2011/DA-11-832A1.html", "fortamt": "$10,000.00", "lat": 26.185600, "lon": -80.171500, "state": "FL" }, "geometry": { "type": "Point", "coordinates": [ -80.171500, 26.185600 ] } }
,
{ "type": "Feature", "id": 25, "properties": { "gid": 25, "file": "EB-10-TP-0108", "date": "5/5/2011", "actiontype": "NAL", "addressee": "Thomas L. Morey, St. Petersburg, FL", "url": "http://transition.fcc.gov/eb/Orders/2011/DA-11-831A1.html", "fortamt": "$10,000.00", "lat": 27.788800, "lon": -82.678200, "state": "FL" }, "geometry": { "type": "Point", "coordinates": [ -82.678200, 27.788800 ] } }
,
{ "type": "Feature", "id": 26, "properties": { "gid": 26, "file": "EB-10-TP-0003", "date": "5/5/2011", "actiontype": "NAL", "addressee": "Alex Alcime, Fort Myers, FL", "url": "http://transition.fcc.gov/eb/Orders/2011/DA-11-829A1.html", "fortamt": "$10,000.00", "lat": 26.622000, "lon": -81.871100, "state": "FL" }, "geometry": { "type": "Point", "coordinates": [ -81.871100, 26.622000 ] } }
,
{ "type": "Feature", "id": 27, "properties": { "gid": 27, "file": "EB-10-TP-0003", "date": "5/5/2011", "actiontype": "NAL", "addressee": "Patrick Michael Ford, Fort Myers, FL", "url": "http://transition.fcc.gov/eb/Orders/2011/DA-11-830A1.html", "fortamt": "$10,000.00", "lat": 26.622000, "lon": -81.871100, "state": "FL" }, "geometry": { "type": "Point", "coordinates": [ -81.871100, 26.622000 ] } }
,
{ "type": "Feature", "id": 29, "properties": { "gid": 29, "file": "EB-10-TP-0077", "date": "5/16/2011", "actiontype": "NAL", "addressee": "Fritzner Lindor, Orange Park, FL", "url": "http://transition.fcc.gov/eb/Orders/2011/DA-11-861A1.html", "fortamt": "$15,000.00", "lat": 30.134400, "lon": -81.776400, "state": "FL" }, "geometry": { "type": "Point", "coordinates": [ -81.776400, 30.134400 ] } }
,
{ "type": "Feature", "id": 30, "properties": { "gid": 30, "file": "EB-10-MA-0122", "date": "5/16/2011", "actiontype": "NAL", "addressee": "Judith V. Smith, formerly known as Judith McFarlane, Miami, FL", "url": "http://transition.fcc.gov/eb/Orders/2011/DA-11-871A1.html", "fortamt": "$22,000.00", "lat": 25.942600, "lon": -80.212900, "state": "FL" }, "geometry": { "type": "Point", "coordinates": [ -80.212900, 25.942600 ] } }
,
{ "type": "Feature", "id": 34, "properties": { "gid": 34, "file": "EB-10-MA-0198", "date": "5/19/2011", "actiontype": "NAL", "addressee": "Durrant Clarke, Miami, FL", "url": "http://transition.fcc.gov/eb/Orders/2011/DA-11-926A1.html", "fortamt": "$10,000.00", "lat": 25.942600, "lon": -80.212900, "state": "FL" }, "geometry": { "type": "Point", "coordinates": [ -80.212900, 25.942600 ] } }
,
{ "type": "Feature", "id": 35, "properties": { "gid": 35, "file": "EB-09-MA-0176", "date": "5/31/2011", "actiontype": "FORFEITURE ORDER", "addressee": "Nounoune Lubin, North Miami, FL", "url": "http://transition.fcc.gov/eb/Orders/2011/DA-11-971A1.html", "fortamt": "$20,000.00", "lat": 25.894000, "lon": -80.181900, "state": "FL" }, "geometry": { "type": "Point", "coordinates": [ -80.181900, 25.894000 ] } }
,
{ "type": "Feature", "id": 40, "properties": { "gid": 40, "file": "EB-10-MA-0116", "date": "6/14/2011", "actiontype": "FORFEITURE ORDER", "addressee": "Marckenson Bazile, Miami, FL", "url": "http://transition.fcc.gov/eb/Orders/2011/DA-11-1054A1.html", "fortamt": "$20,000.00", "lat": 25.928100, "lon": -80.176300, "state": "FL" }, "geometry": { "type": "Point", "coordinates": [ -80.176300, 25.928100 ] } }
,
{ "type": "Feature", "id": 45, "properties": { "gid": 45, "file": "EB-10-MA-0140", "date": "7/8/2011", "actiontype": "FORFEITURE ORDER", "addressee": "Antonio Robinson, Miami, FL", "url": "http://transition.fcc.gov/eb/Orders/2011/DA-11-1174A1.html", "fortamt": "$10,000.00", "lat": 25.942600, "lon": -80.212900, "state": "FL" }, "geometry": { "type": "Point", "coordinates": [ -80.212900, 25.942600 ] } }
,
{ "type": "Feature", "id": 46, "properties": { "gid": 46, "file": "EB-09-MA-0089", "date": "7/21/2011", "actiontype": "M.O.&O.", "addressee": "Christopher M. Myers, Lauderhill, FL", "url": "http://transition.fcc.gov/eb/Orders/2011/DA-11-1217A1.html", "fortamt": "$5,000.00", "lat": 26.151800, "lon": -80.222400, "state": "FL" }, "geometry": { "type": "Point", "coordinates": [ -80.222400, 26.151800 ] } }
,
{ "type": "Feature", "id": 52, "properties": { "gid": 52, "file": "EB-10-MA-0122", "date": "7/28/2011", "actiontype": "FORFEITURE ORDER", "addressee": "Judith V. Smith, formerly known as Judith McFarlane, Miami, FL", "url": "http://transition.fcc.gov/eb/Orders/2011/DA-11-1266A1.html", "fortamt": "$22,000.00", "lat": 25.942600, "lon": -80.212900, "state": "FL" }, "geometry": { "type": "Point", "coordinates": [ -80.212900, 25.942600 ] } }
,
{ "type": "Feature", "id": 58, "properties": { "gid": 58, "file": "EB-10-MA-0170", "date": "8/1/2011", "actiontype": "FORFEITURE ORDER", "addressee": "Mikhail Rhodd, Lauderdale Lakes, FL", "url": "http://transition.fcc.gov/eb/Orders/2011/DA-11-1323A1.html", "fortamt": "$10,000.00", "lat": 26.185600, "lon": -80.171500, "state": "FL" }, "geometry": { "type": "Point", "coordinates": [ -80.171500, 26.185600 ] } }
,
{ "type": "Feature", "id": 59, "properties": { "gid": 59, "file": "EB-10-TP-0003", "date": "8/1/2011", "actiontype": "ORDER & CONSENT DECREE", "addressee": "Alex Alcime, Fort Myers, FL", "url": "http://transition.fcc.gov/eb/Orders/2011/DA-11-1324A1.html", "fortamt": "$350.00", "lat": 26.622000, "lon": -81.871100, "state": "FL" }, "geometry": { "type": "Point", "coordinates": [ -81.871100, 26.622000 ] } }
,
{ "type": "Feature", "id": 63, "properties": { "gid": 63, "file": "EB-10-TP-0003", "date": "8/22/2011", "actiontype": "FORFEITURE ORDER", "addressee": "Patrick Michael Ford, Fort Myers, FL", "url": "http://transition.fcc.gov/eb/Orders/2011/DA-11-1435A1.html", "fortamt": "$10,000.00", "lat": 26.622000, "lon": -81.871100, "state": "FL" }, "geometry": { "type": "Point", "coordinates": [ -81.871100, 26.622000 ] } }
,
{ "type": "Feature", "id": 71, "properties": { "gid": 71, "file": "EB-10-TP-0077", "date": "9/20/2011", "actiontype": "FORFEITURE ORDER", "addressee": "Fritzner Lindor, Orange Park, FL", "url": "http://transition.fcc.gov/eb/Orders/2011/DA-11-1577A1.html", "fortamt": "$300.00", "lat": 30.134400, "lon": -81.776400, "state": "FL" }, "geometry": { "type": "Point", "coordinates": [ -81.776400, 30.134400 ] } }
,
{ "type": "Feature", "id": 87, "properties": { "gid": 87, "file": "EB-11-MA-0009", "date": "10/17/2011", "actiontype": "NAL", "addressee": "Neal Davis, Fort Lauderdale, FL", "url": "http://transition.fcc.gov/eb/Orders/2011/DA-11-1722A1.html", "fortamt": "$10,000.00", "lat": 26.144200, "lon": -80.170800, "state": "FL" }, "geometry": { "type": "Point", "coordinates": [ -80.170800, 26.144200 ] } }
,
{ "type": "Feature", "id": 88, "properties": { "gid": 88, "file": "EB-10-TP-0108", "date": "10/18/2011", "actiontype": "FORFEITURE ORDER", "addressee": "Thomas L. Morey, St. Petersburg, FL", "url": "http://transition.fcc.gov/eb/Orders/2011/DA-11-1730A1.html", "fortamt": "$250.00", "lat": 27.788800, "lon": -82.678200, "state": "FL" }, "geometry": { "type": "Point", "coordinates": [ -82.678200, 27.788800 ] } }
,
{ "type": "Feature", "id": 90, "properties": { "gid": 90, "file": "EB-10-MA-0048", "date": "10/20/2011", "actiontype": "FORFEITURE ORDER", "addressee": "Whisler Fleurinor, Fort Lauderdale, FL", "url": "http://transition.fcc.gov/eb/Orders/2011/DA-11-1743A1.html", "fortamt": "$500.00", "lat": 26.137100, "lon": -80.123200, "state": "FL" }, "geometry": { "type": "Point", "coordinates": [ -80.123200, 26.137100 ] } }
,
{ "type": "Feature", "id": 92, "properties": { "gid": 92, "file": "EB-10-MA-0207", "date": "10/21/2011", "actiontype": "NAL", "addressee": "John E. Criteser, Jr., Lake Park, FL", "url": "http://transition.fcc.gov/eb/Orders/2011/DA-11-1750A1.html", "fortamt": "$15,000.00", "lat": 26.799600, "lon": -80.071400, "state": "FL" }, "geometry": { "type": "Point", "coordinates": [ -80.071400, 26.799600 ] } }
,
{ "type": "Feature", "id": 94, "properties": { "gid": 94, "file": "EB-10-MA-0145", "date": "10/25/2011", "actiontype": "NAL", "addressee": "Willis Cernogg, Jr., Miami, FL", "url": "http://transition.fcc.gov/eb/Orders/2011/DA-11-1775A1.html", "fortamt": "$10,000.00", "lat": 25.813500, "lon": -80.205500, "state": "FL" }, "geometry": { "type": "Point", "coordinates": [ -80.205500, 25.813500 ] } }
,
{ "type": "Feature", "id": 102, "properties": { "gid": 102, "file": "EB-10-MA-0009", "date": "12/6/2011", "actiontype": "FORFEITURE ORDER", "addressee": "Neal Davis, Fort Lauderdale, FL", "url": "http://transition.fcc.gov/eb/Orders/2011/DA-11-1976A1.html", "fortamt": "$10,000.00", "lat": 26.151800, "lon": -80.222400, "state": "FL" }, "geometry": { "type": "Point", "coordinates": [ -80.222400, 26.151800 ] } }
,
{ "type": "Feature", "id": 103, "properties": { "gid": 103, "file": "EB-10-MA-0207", "date": "12/6/2011", "actiontype": "FORFEITURE ORDER", "addressee": "John E. Criteser, Jr., Lake Park, FL", "url": "http://transition.fcc.gov/eb/Orders/2011/DA-11-1975A1.html", "fortamt": "$15,000.00", "lat": 26.799600, "lon": -80.071400, "state": "FL" }, "geometry": { "type": "Point", "coordinates": [ -80.071400, 26.799600 ] } }
,
{ "type": "Feature", "id": 33, "properties": { "gid": 33, "file": "EB-11-CG-0033", "date": "5/17/2011", "actiontype": "NOUO", "addressee": "Brandon Sims, Marion, Illinois", "url": "http://www.fcc.gov/eb/FieldNotices/2003/DOC-306791A1.html", "fortamt": "", "lat": 37.725300, "lon": -88.922600, "state": "IL" }, "geometry": { "type": "Point", "coordinates": [ -88.922600, 37.725300 ] } }
,
{ "type": "Feature", "id": 48, "properties": { "gid": 48, "file": "EB-10-CG-0106", "date": "7/21/2011", "actiontype": "NOUO", "addressee": "Dewayne Readus, a.k.a. Mbanna Kantako, Springfield, Illinois", "url": "http://www.fcc.gov/eb/FieldNotices/2003/DOC-308803A1.html", "fortamt": "", "lat": 39.816000, "lon": -89.648200, "state": "IL" }, "geometry": { "type": "Point", "coordinates": [ -89.648200, 39.816000 ] } }
,
{ "type": "Feature", "id": 36, "properties": { "gid": 36, "file": "EB-11-CG-0094", "date": "6/7/2011", "actiontype": "NOUO", "addressee": "Paul Odaniel, Indianapolis, IN", "url": "http://www.fcc.gov/eb/FieldNotices/2003/DOC-307479A1.html", "fortamt": "", "lat": 39.867100, "lon": -86.112800, "state": "IN" }, "geometry": { "type": "Point", "coordinates": [ -86.112800, 39.867100 ] } }
,
{ "type": "Feature", "id": 37, "properties": { "gid": 37, "file": "EB-11-CG-0063", "date": "6/7/2011", "actiontype": "NOUO", "addressee": "Jacob N. Mattern, Lafayette, IN", "url": "http://www.fcc.gov/eb/FieldNotices/2003/DOC-307481A1.html", "fortamt": "", "lat": 40.418200, "lon": -86.888800, "state": "IN" }, "geometry": { "type": "Point", "coordinates": [ -86.888800, 40.418200 ] } }
,
{ "type": "Feature", "id": 12, "properties": { "gid": 12, "file": "EB-11-CF-0025", "date": "3/23/2011", "actiontype": "NOUO", "addressee": "Marc Jerome, Riverdale, Maryland", "url": "http://www.fcc.gov/eb/FieldNotices/2003/DOC-305413A1.html", "fortamt": "", "lat": 38.961100, "lon": -76.915700, "state": "MD" }, "geometry": { "type": "Point", "coordinates": [ -76.915700, 38.961100 ] } }
,
{ "type": "Feature", "id": 8, "properties": { "gid": 8, "file": "EB-10-BS-0029", "date": "3/11/2011", "actiontype": "NOUO", "addressee": "Theodore Drigo, Mattapan, Massachusetts", "url": "http://www.fcc.gov/eb/FieldNotices/2003/DOC-305161A1.html", "fortamt": "", "lat": 42.273500, "lon": -71.094500, "state": "MA" }, "geometry": { "type": "Point", "coordinates": [ -71.094500, 42.273500 ] } }
,
{ "type": "Feature", "id": 31, "properties": { "gid": 31, "file": "EB-10-BS-0050", "date": "5/17/2011", "actiontype": "FORFEITURE ORDER", "addressee": "Robert Brown, Boston, MA", "url": "http://transition.fcc.gov/eb/Orders/2011/DA-11-887A1.html", "fortamt": "$15,000.00", "lat": 42.323900, "lon": -71.085500, "state": "MA" }, "geometry": { "type": "Point", "coordinates": [ -71.085500, 42.323900 ] } }
,
{ "type": "Feature", "id": 32, "properties": { "gid": 32, "file": "EB-09-BS-0046", "date": "5/17/2011", "actiontype": "FORFEITURE ORDER", "addressee": "Lloyd Morris, Boston, MA", "url": "http://transition.fcc.gov/eb/Orders/2011/DA-11-889A1.html", "fortamt": "$15,000.00", "lat": 42.308700, "lon": -71.082700, "state": "MA" }, "geometry": { "type": "Point", "coordinates": [ -71.082700, 42.308700 ] } }
,
{ "type": "Feature", "id": 99, "properties": { "gid": 99, "file": "EB-11-BS-0081", "date": "11/14/2011", "actiontype": "NOUO", "addressee": "Thadeus Kyenkyenhene, Worcester, MA", "url": "http://www.fcc.gov/eb/FieldNotices/2003/DOC-311105A1.html", "fortamt": "", "lat": 42.243900, "lon": -71.838600, "state": "MA" }, "geometry": { "type": "Point", "coordinates": [ -71.838600, 42.243900 ] } }
,
{ "type": "Feature", "id": 18, "properties": { "gid": 18, "file": "EB-11-DT-0015", "date": "4/4/2011", "actiontype": "NOUO", "addressee": "Albino Gutierrez, Detroit, Michigan", "url": "http://www.fcc.gov/eb/FieldNotices/2003/DOC-305676A1.html", "fortamt": "", "lat": 42.308500, "lon": -83.114200, "state": "MI" }, "geometry": { "type": "Point", "coordinates": [ -83.114200, 42.308500 ] } }
,
{ "type": "Feature", "id": 47, "properties": { "gid": 47, "file": "EB-10-DT-0327", "date": "7/21/2011", "actiontype": "NOUO", "addressee": "Gregory D. Brown, Lansing, Michigan", "url": "http://www.fcc.gov/eb/FieldNotices/2003/DOC-308562A1.html", "fortamt": "", "lat": 42.732100, "lon": -84.554700, "state": "MI" }, "geometry": { "type": "Point", "coordinates": [ -84.554700, 42.732100 ] } }
,
{ "type": "Feature", "id": 43, "properties": { "gid": 43, "file": "EB-11-CG-0028", "date": "7/5/2011", "actiontype": "NOUO", "addressee": "Xeng Xiong, St. Paul, Minnesota", "url": "http://www.fcc.gov/eb/FieldNotices/2003/DOC-308327A1.html", "fortamt": "", "lat": 44.962700, "lon": -93.086700, "state": "MN" }, "geometry": { "type": "Point", "coordinates": [ -93.086700, 44.962700 ] } }
,
{ "type": "Feature", "id": 44, "properties": { "gid": 44, "file": "EB-11-CG-0129", "date": "7/5/2011", "actiontype": "NOUO", "addressee": "Kou D. Her, St. Paul, Minnesota", "url": "http://www.fcc.gov/eb/FieldNotices/2003/DOC-308328A1.html", "fortamt": "", "lat": 44.962700, "lon": -93.086700, "state": "MN" }, "geometry": { "type": "Point", "coordinates": [ -93.086700, 44.962700 ] } }
,
{ "type": "Feature", "id": 104, "properties": { "gid": 104, "file": "EB-11-CG-0381", "date": "12/7/2011", "actiontype": "NOUO", "addressee": "Roberts Broadcasting Company of  Evansville, IN, LLC, St. Louis, Missouri", "url": "http://www.fcc.gov/eb/FieldNotices/2003/DOC-311455A1.html", "fortamt": "", "lat": 38.630100, "lon": -90.192900, "state": "MO" }, "geometry": { "type": "Point", "coordinates": [ -90.192900, 38.630100 ] } }
,
{ "type": "Feature", "id": 19, "properties": { "gid": 19, "file": "EB-11-LA-0025", "date": "4/6/2011", "actiontype": "NOUO", "addressee": "James Gritz, Sandy Valley, Nevada", "url": "http://www.fcc.gov/eb/FieldNotices/2003/DOC-305678A1.html", "fortamt": "", "lat": 35.816300, "lon": -115.437500, "state": "NV" }, "geometry": { "type": "Point", "coordinates": [ -115.437500, 35.816300 ] } }
,
{ "type": "Feature", "id": 41, "properties": { "gid": 41, "file": "EB-10-SF-0235", "date": "6/14/2011", "actiontype": "NOUO", "addressee": "Thomas P. Haynes, Sr., Lovelock, NV", "url": "http://www.fcc.gov/eb/FieldNotices/2003/DOC-307834A1.html", "fortamt": "", "lat": 40.248400, "lon": -118.411100, "state": "NV" }, "geometry": { "type": "Point", "coordinates": [ -118.411100, 40.248400 ] } }
,
{ "type": "Feature", "id": 15, "properties": { "gid": 15, "file": "EB-11-BS-0006", "date": "3/29/2011", "actiontype": "NOUO", "addressee": "Antwoine Alford, Nashua, NH", "url": "http://www.fcc.gov/eb/FieldNotices/2003/DOC-305522A1.html", "fortamt": "", "lat": 42.743800, "lon": -71.461400, "state": "NH" }, "geometry": { "type": "Point", "coordinates": [ -71.461400, 42.743800 ] } }
,
{ "type": "Feature", "id": 16, "properties": { "gid": 16, "file": "EB-10-BS-0058", "date": "3/29/2011", "actiontype": "NOUO", "addressee": "Carmen Favuzza, Woburn, MA", "url": "http://www.fcc.gov/eb/FieldNotices/2003/DOC-305521A1.html", "fortamt": "", "lat": 42.997000, "lon": -71.484900, "state": "NH" }, "geometry": { "type": "Point", "coordinates": [ -71.484900, 42.997000 ] } }
,
{ "type": "Feature", "id": 17, "properties": { "gid": 17, "file": "EB-10-BS-0058", "date": "3/29/2011", "actiontype": "NOUO", "addressee": "Joseph Skinner, Manchester, NH", "url": "http://www.fcc.gov/eb/FieldNotices/2003/DOC-305520A1.html", "fortamt": "", "lat": 42.997000, "lon": -71.484900, "state": "NH" }, "geometry": { "type": "Point", "coordinates": [ -71.484900, 42.997000 ] } }
,
{ "type": "Feature", "id": 10, "properties": { "gid": 10, "file": "EB-05-NY-301", "date": "3/17/2011", "actiontype": "M.O.&O.", "addressee": "Kacy R. Rankine, West Orange, NJ", "url": "http://transition.fcc.gov/eb/Orders/2011/DA-11-449A1.html", "fortamt": "", "lat": 40.787600, "lon": -74.256500, "state": "NJ" }, "geometry": { "type": "Point", "coordinates": [ -74.256500, 40.787600 ] } }
,
{ "type": "Feature", "id": 4, "properties": { "gid": 4, "file": "EB-11-DV-0012", "date": "2/28/2011", "actiontype": "NOUO", "addressee": "Nathan Hall, Aurora, Colorado", "url": "http://www.fcc.gov/eb/FieldNotices/2003/DOC-305123A1.html", "fortamt": "", "lat": 39.695500, "lon": -104.789300, "state": "CO" }, "geometry": { "type": "Point", "coordinates": [ -104.789300, 39.695500 ] } }
,
{ "type": "Feature", "id": 1, "properties": { "gid": 1, "file": "EB-10-NY-0185", "date": "2/11/2011", "actiontype": "NAL", "addressee": "Bernabe Moreno, Passaic, NJ", "url": "http://transition.fcc.gov/eb/Orders/2011/DA-11-258A1.html", "fortamt": "$10,000.00", "lat": 40.879300, "lon": -74.143000, "state": "NJ" }, "geometry": { "type": "Point", "coordinates": [ -74.143000, 40.879300 ] } }
,
{ "type": "Feature", "id": 67, "properties": { "gid": 67, "file": "EB-11-SD-0151", "date": "9/7/2011", "actiontype": "NOUO", "addressee": "Robert F. Zukowski, Albuquerque, New Mexico", "url": "http://www.fcc.gov/eb/FieldNotices/2003/DOC-309800A1.html", "fortamt": "", "lat": 35.101600, "lon": -106.518900, "state": "NM" }, "geometry": { "type": "Point", "coordinates": [ -106.518900, 35.101600 ] } }
,
{ "type": "Feature", "id": 28, "properties": { "gid": 28, "file": "EB-10-NY-0486", "date": "5/12/2011", "actiontype": "NAL", "addressee": "Recardo Millwood, Bronx, NY", "url": "http://transition.fcc.gov/eb/Orders/2011/DA-11-860A1.html", "fortamt": "$20,000.00", "lat": 40.890800, "lon": -73.851200, "state": "NY" }, "geometry": { "type": "Point", "coordinates": [ -73.851200, 40.890800 ] } }
,
{ "type": "Feature", "id": 51, "properties": { "gid": 51, "file": "EB-08-NY-0283", "date": "7/26/2011", "actiontype": "FORFEITURE ORDER", "addressee": "Andre Alleyne, Jessie White, Brooklyn, NY", "url": "http://transition.fcc.gov/eb/Orders/2011/DA-11-1233A1.html", "fortamt": "$10,000.00", "lat": 40.694400, "lon": -73.991500, "state": "NY" }, "geometry": { "type": "Point", "coordinates": [ -73.991500, 40.694400 ] } }
,
{ "type": "Feature", "id": 61, "properties": { "gid": 61, "file": "EB-11-NY-0230", "date": "8/19/2011", "actiontype": "NOUO", "addressee": "Robert Mohamed, South Richmond Hill, NY", "url": "http://www.fcc.gov/eb/FieldNotices/2003/DOC-309211A1.html", "fortamt": "", "lat": 40.689300, "lon": -73.823900, "state": "NY" }, "geometry": { "type": "Point", "coordinates": [ -73.823900, 40.689300 ] } }
,
{ "type": "Feature", "id": 64, "properties": { "gid": 64, "file": "EB-11-NY-0230", "date": "8/23/2011", "actiontype": "NOUO", "addressee": "Robert Mohamed, South Richmond Hill, NY", "url": "http://www.fcc.gov/eb/FieldNotices/2003/DOC-309312A1.html", "fortamt": "", "lat": 40.689300, "lon": -73.823900, "state": "NY" }, "geometry": { "type": "Point", "coordinates": [ -73.823900, 40.689300 ] } }
,
{ "type": "Feature", "id": 65, "properties": { "gid": 65, "file": "EB-11-NY-0242", "date": "8/31/2011", "actiontype": "NOUO", "addressee": "Fieldbridge Associates, LLC, Brooklyn, NY", "url": "http://www.fcc.gov/eb/FieldNotices/2003/DOC-309455A1.html", "fortamt": "", "lat": 40.663200, "lon": -73.954800, "state": "NY" }, "geometry": { "type": "Point", "coordinates": [ -73.954800, 40.663200 ] } }
,
{ "type": "Feature", "id": 84, "properties": { "gid": 84, "file": "EB-11-NY-0273", "date": "10/1/2011", "actiontype": "NOUO", "addressee": "Maureen Wilkinson, Brooklyn, NY", "url": "http://www.fcc.gov/eb/FieldNotices/2003/DOC-310316A1.html", "fortamt": "", "lat": 40.670500, "lon": -73.935900, "state": "NY" }, "geometry": { "type": "Point", "coordinates": [ -73.935900, 40.670500 ] } }
,
{ "type": "Feature", "id": 85, "properties": { "gid": 85, "file": "EB-11-NY-0274", "date": "10/1/2011", "actiontype": "NOUO", "addressee": "Dawn Foster, Bronx, NY", "url": "http://www.fcc.gov/eb/FieldNotices/2003/DOC-310315A1.html", "fortamt": "", "lat": 40.682000, "lon": -73.978400, "state": "NY" }, "geometry": { "type": "Point", "coordinates": [ -73.978400, 40.682000 ] } }
,
{ "type": "Feature", "id": 93, "properties": { "gid": 93, "file": "EB-11-NY-0288", "date": "10/24/2011", "actiontype": "NOUO", "addressee": "Brian Figeroux, Brooklyn, NY", "url": "http://www.fcc.gov/eb/FieldNotices/2003/DOC-310734A1.html", "fortamt": "", "lat": 40.663200, "lon": -73.954800, "state": "NY" }, "geometry": { "type": "Point", "coordinates": [ -73.954800, 40.663200 ] } }
,
{ "type": "Feature", "id": 101, "properties": { "gid": 101, "file": "EB-11-NY-0337", "date": "11/29/2011", "actiontype": "NOUO", "addressee": "Lorraine M. Strauchn, Bronx, New York", "url": "http://www.fcc.gov/eb/FieldNotices/2003/DOC-311336A1.html", "fortamt": "", "lat": 40.870800, "lon": -73.849400, "state": "NY" }, "geometry": { "type": "Point", "coordinates": [ -73.849400, 40.870800 ] } }
,
{ "type": "Feature", "id": 100, "properties": { "gid": 100, "file": "EB-11-NF-0098", "date": "11/16/2011", "actiontype": "NOUO", "addressee": "Nathan Ahmad Emmanuel Smith and Leslee Ann McDonald, Winston-Salem, NC", "url": "http://www.fcc.gov/eb/FieldNotices/2003/DOC-312052A1.html", "fortamt": "", "lat": 36.100700, "lon": -80.231100, "state": "NC" }, "geometry": { "type": "Point", "coordinates": [ -80.231100, 36.100700 ] } }
,
{ "type": "Feature", "id": 42, "properties": { "gid": 42, "file": "EB-11-DT-0080", "date": "6/28/2011", "actiontype": "NOUO", "addressee": "Devon Pennell, Cambridge, OH", "url": "http://www.fcc.gov/eb/FieldNotices/2003/DOC-308259A1.html", "fortamt": "", "lat": 40.026100, "lon": -81.588100, "state": "OH" }, "geometry": { "type": "Point", "coordinates": [ -81.588100, 40.026100 ] } }
,
{ "type": "Feature", "id": 50, "properties": { "gid": 50, "file": "EB-11-DT-0089", "date": "7/25/2011", "actiontype": "NOUO", "addressee": "Jack Thompson, Barberton, OH", "url": "http://www.fcc.gov/eb/FieldNotices/2003/DOC-308804A1.html", "fortamt": "", "lat": 41.017300, "lon": -81.616200, "state": "OH" }, "geometry": { "type": "Point", "coordinates": [ -81.616200, 41.017300 ] } }
,
{ "type": "Feature", "id": 60, "properties": { "gid": 60, "file": "EB-10-PO-0123", "date": "8/16/2011", "actiontype": "NOUO", "addressee": "Robert Dwaine Graffi, Enterprise, Oregon", "url": "http://www.fcc.gov/eb/FieldNotices/2003/DOC-309213A1.html", "fortamt": "", "lat": 45.493600, "lon": -117.288200, "state": "OR" }, "geometry": { "type": "Point", "coordinates": [ -117.288200, 45.493600 ] } }
,
{ "type": "Feature", "id": 89, "properties": { "gid": 89, "file": "EB-11-PO-0039", "date": "10/19/2011", "actiontype": "NOUO", "addressee": "Audre R. Nowlin, Gold Beach, Oregon", "url": "http://www.fcc.gov/eb/FieldNotices/2003/DOC-310623A1.html", "fortamt": "", "lat": 42.431000, "lon": -124.403600, "state": "OR" }, "geometry": { "type": "Point", "coordinates": [ -124.403600, 42.431000 ] } }
,
{ "type": "Feature", "id": 95, "properties": { "gid": 95, "file": "EB-11-PO-0138", "date": "10/27/2011", "actiontype": "NOUO", "addressee": "Clarence and Pamela Langer, Sherwood, Oregon", "url": "http://www.fcc.gov/eb/FieldNotices/2003/DOC-310736A1.html", "fortamt": "", "lat": 45.353300, "lon": -122.848800, "state": "OR" }, "geometry": { "type": "Point", "coordinates": [ -122.848800, 45.353300 ] } }
,
{ "type": "Feature", "id": 96, "properties": { "gid": 96, "file": "EB-11-PO-0135", "date": "10/27/2011", "actiontype": "NOUO", "addressee": "Joshua M. McMurchie, Prineville, Oregon", "url": "http://www.fcc.gov/eb/FieldNotices/2003/DOC-310735A1.html", "fortamt": "", "lat": 44.288500, "lon": -120.824800, "state": "OR" }, "geometry": { "type": "Point", "coordinates": [ -120.824800, 44.288500 ] } }
,
{ "type": "Feature", "id": 97, "properties": { "gid": 97, "file": "EB-11-PO-0146", "date": "11/7/2011", "actiontype": "NOUO", "addressee": "Paul Winquist, Hillsboro, Oregon", "url": "http://www.fcc.gov/eb/FieldNotices/2003/DOC-310979A1.html", "fortamt": "", "lat": 45.499800, "lon": -122.953600, "state": "OR" }, "geometry": { "type": "Point", "coordinates": [ -122.953600, 45.499800 ] } }
,
{ "type": "Feature", "id": 5, "properties": { "gid": 5, "file": "EB-11-PA-0012", "date": "3/1/2011", "actiontype": "NOUO", "addressee": "Gary Drechsel, Brodheadsville, Pennsylvania", "url": "http://www.fcc.gov/eb/FieldNotices/2003/DOC-305121A1.html", "fortamt": "", "lat": 40.924200, "lon": -75.403300, "state": "PA" }, "geometry": { "type": "Point", "coordinates": [ -75.403300, 40.924200 ] } }
,
{ "type": "Feature", "id": 38, "properties": { "gid": 38, "file": "EB-11-PA-0113", "date": "6/10/2011", "actiontype": "NOUO", "addressee": "Daniel Halgash, Warrington, Pennsylvania", "url": "http://www.fcc.gov/eb/FieldNotices/2003/DOC-307487A1.html", "fortamt": "", "lat": 40.242600, "lon": -75.136200, "state": "PA" }, "geometry": { "type": "Point", "coordinates": [ -75.136200, 40.242600 ] } }
,
{ "type": "Feature", "id": 39, "properties": { "gid": 39, "file": "EB-11-PA-0114", "date": "6/10/2011", "actiontype": "NOUO", "addressee": "Ric Star, Chester, Pennsylvania", "url": "http://www.fcc.gov/eb/FieldNotices/2003/DOC-307488A1.html", "fortamt": "", "lat": 39.849300, "lon": -75.374400, "state": "PA" }, "geometry": { "type": "Point", "coordinates": [ -75.374400, 39.849300 ] } }
,
{ "type": "Feature", "id": 110, "properties": { "gid": 110, "file": "EB-11-PA-0278", "date": "12/19/2011", "actiontype": "NOUO", "addressee": "Gary Smith, Stroudsburg, Pennsylvania", "url": "http://www.fcc.gov/eb/FieldNotices/2003/DOC-311716A1.html", "fortamt": "", "lat": 40.985000, "lon": -75.255500, "state": "PA" }, "geometry": { "type": "Point", "coordinates": [ -75.255500, 40.985000 ] } }
,
{ "type": "Feature", "id": 66, "properties": { "gid": 66, "file": "EB-11-BS-0022", "date": "9/1/2011", "actiontype": "NOUO", "addressee": "Emmanuel Noel, Providence, RI", "url": "http://www.fcc.gov/eb/FieldNotices/2003/DOC-309453A1.html", "fortamt": "", "lat": 41.859400, "lon": -71.435600, "state": "RI" }, "geometry": { "type": "Point", "coordinates": [ -71.435600, 41.859400 ] } }
,
{ "type": "Feature", "id": 9, "properties": { "gid": 9, "file": "EB-11-HU-0008", "date": "3/14/2011", "actiontype": "NOUO", "addressee": "Yates Media, Lufkin, Texas", "url": "http://www.fcc.gov/eb/FieldNotices/2003/DOC-305289A1.html", "fortamt": "", "lat": 31.320800, "lon": -94.699700, "state": "TX" }, "geometry": { "type": "Point", "coordinates": [ -94.699700, 31.320800 ] } }
,
{ "type": "Feature", "id": 49, "properties": { "gid": 49, "file": "EB-11-DL-0055", "date": "7/21/2011", "actiontype": "NOUO", "addressee": "Precious Moments In Video, San Angelo, TX", "url": "http://www.fcc.gov/eb/FieldNotices/2003/DOC-308564A1.html", "fortamt": "", "lat": 31.487800, "lon": -100.492700, "state": "TX" }, "geometry": { "type": "Point", "coordinates": [ -100.492700, 31.487800 ] } }
,
{ "type": "Feature", "id": 81, "properties": { "gid": 81, "file": "EB-11-ST-0009", "date": "9/30/2011", "actiontype": "NOUO", "addressee": "John Harvey Burrows III, Olympia, Washington", "url": "http://www.fcc.gov/eb/FieldNotices/2003/DOC-310129A1.html", "fortamt": "", "lat": 47.014000, "lon": -122.879000, "state": "WA" }, "geometry": { "type": "Point", "coordinates": [ -122.879000, 47.014000 ] } }
,
{ "type": "Feature", "id": 82, "properties": { "gid": 82, "file": "EB-10-ST-0029", "date": "9/30/2011", "actiontype": "NOUO", "addressee": "Rev. Esteban Gonzalez, Yakima, Washington", "url": "http://www.fcc.gov/eb/FieldNotices/2003/DOC-310128A1.html", "fortamt": "", "lat": 46.595800, "lon": -120.533400, "state": "WA" }, "geometry": { "type": "Point", "coordinates": [ -120.533400, 46.595800 ] } }
,
{ "type": "Feature", "id": 83, "properties": { "gid": 83, "file": "EB-11-ST-0093", "date": "9/30/2011", "actiontype": "NOUO", "addressee": "Properties West, Inc., Yakima, WA", "url": "http://www.fcc.gov/eb/FieldNotices/2003/DOC-310127A1.html", "fortamt": "", "lat": 46.601600, "lon": -120.606000, "state": "WA" }, "geometry": { "type": "Point", "coordinates": [ -120.606000, 46.601600 ] } }
,
{ "type": "Feature", "id": 98, "properties": { "gid": 98, "file": "EB-11-PO-0148", "date": "11/7/2011", "actiontype": "NOUO", "addressee": "TV Property Investments LLC, Seattle, Washington", "url": "http://www.fcc.gov/eb/FieldNotices/2003/DOC-310980A1.html", "fortamt": "", "lat": 47.611600, "lon": -122.309300, "state": "WA" }, "geometry": { "type": "Point", "coordinates": [ -122.309300, 47.611600 ] } }
,
{ "type": "Feature", "id": 105, "properties": { "gid": 105, "file": "EB-09-ST-0042", "date": "12/8/2011", "actiontype": "NOUO", "addressee": "Catherine S. Hom, Olympia, Washington", "url": "http://www.fcc.gov/eb/FieldNotices/2003/DOC-311460A1.html", "fortamt": "", "lat": 47.014000, "lon": -122.879000, "state": "WA" }, "geometry": { "type": "Point", "coordinates": [ -122.879000, 47.014000 ] } }
,
{ "type": "Feature", "id": 106, "properties": { "gid": 106, "file": "EB-09-ST-0042", "date": "12/8/2011", "actiontype": "NOUO", "addressee": "George Fardelmann, Medford, Oregon", "url": "http://www.fcc.gov/eb/FieldNotices/2003/DOC-311462A1.html", "fortamt": "", "lat": 47.014000, "lon": -122.879000, "state": "WA" }, "geometry": { "type": "Point", "coordinates": [ -122.879000, 47.014000 ] } }
,
{ "type": "Feature", "id": 107, "properties": { "gid": 107, "file": "EB-09-ST-0042", "date": "12/8/2011", "actiontype": "NOUO", "addressee": "Janice L. Pinhero, Ashland, Oregon", "url": "http://www.fcc.gov/eb/FieldNotices/2003/DOC-311463A1.html", "fortamt": "", "lat": 47.014000, "lon": -122.879000, "state": "WA" }, "geometry": { "type": "Point", "coordinates": [ -122.879000, 47.014000 ] } }
,
{ "type": "Feature", "id": 108, "properties": { "gid": 108, "file": "EB-09-ST-0042", "date": "12/8/2011", "actiontype": "NOUO", "addressee": "William A. Huntley, Olympia, Washington", "url": "http://www.fcc.gov/eb/FieldNotices/2003/DOC-311461A1.html", "fortamt": "", "lat": 47.014000, "lon": -122.879000, "state": "WA" }, "geometry": { "type": "Point", "coordinates": [ -122.879000, 47.014000 ] } }
,
{ "type": "Feature", "id": 86, "properties": { "gid": 86, "file": "EB-11-CG-0184", "date": "10/7/2011", "actiontype": "NOUO", "addressee": "Gary E. Clapp, Kenosha, Wisconsin", "url": "http://www.fcc.gov/eb/FieldNotices/2003/DOC-310314A1.html", "fortamt": "", "lat": 42.563800, "lon": -87.877500, "state": "WI" }, "geometry": { "type": "Point", "coordinates": [ -87.877500, 42.563800 ] } }
,
{ "type": "Feature", "id": 20, "properties": { "gid": 20, "file": "EB-10-SD-0227", "date": "4/15/2011", "actiontype": "NOUO", "addressee": "Jason K. La Valley, Tucson, Arizona", "url": "http://www.fcc.gov/eb/FieldNotices/2003/DOC-305850A1.html", "fortamt": "", "lat": 32.217000, "lon": -110.971100, "state": "AZ" }, "geometry": { "type": "Point", "coordinates": [ -110.971100, 32.217000 ] } }
,
{ "type": "Feature", "id": 72, "properties": { "gid": 72, "file": "EB-11-SJ-0028", "date": "9/21/2011", "actiontype": "NAL", "addressee": "Eleuterio Lebron, Guayama, PR", "url": "http://transition.fcc.gov/eb/Orders/2011/DA-11-1578A1.html", "fortamt": "$15,000.00", "lat": 18.120900, "lon": -66.168400, "state": "PR" }, "geometry": { "type": "Point", "coordinates": [ -66.168400, 18.120900 ] } }

]
}
